[
  {
    "category": "主要な病院",
    "category:en": "main hospitals",
    "locations": [
      {
        "name": "九段坂病院",
        "name:en": "Kudanzaka Hospital",
        "lat": 35.693934932655104,
        "lng": 139.7522430795791,
        "copyright": "© Nawashiro",
        "licence": "MIT License",
        "licenceUri": "https://opensource.org/license/mit"
      },
      {
        "name": "三楽病院",
        "name:en": "Sanraku Hospital",
        "lat": 35.70019873576313,
        "lng": 139.76112802439897,
        "copyright": "© Nawashiro",
        "licence": "MIT License",
        "licenceUri": "https://opensource.org/license/mit"
      },
      {
        "name": "杏雲堂病院",
        "name:en": "Kyoundo Hospital",
        "name:es": "Hospital Kyoundo",
        "lat": 35.698515527572106,
        "lng": 139.76301356527284,
        "copyright": "© Nawashiro",
        "licence": "MIT License",
        "licenceUri": "https://opensource.org/license/mit"
      },
      {
        "name": "日本大学病院",
        "name:en": "Nihon University Hospital",
        "lat": 35.69749973003284,
        "lng": 139.76239875925273,
        "copyright": "© Nawashiro",
        "licence": "MIT License",
        "licenceUri": "https://opensource.org/license/mit"
      },
      {
        "name": "三井記念病院",
        "name:en": "Mitsui Memorial Hospital",
        "lat": 35.69983578409165,
        "lng": 139.77921302130287,
        "copyright": "© Nawashiro",
        "licence": "MIT License",
        "licenceUri": "https://opensource.org/license/mit"
      },
      {
        "name": "東京逓信病院",
        "name:en": "Tokyo Teishin Hospital",
        "lat": 35.69726245876254,
        "lng": 139.74214268318553,
        "copyright": "© Nawashiro",
        "licence": "MIT License",
        "licenceUri": "https://opensource.org/license/mit"
      }
    ]
  },
  {
    "category": "区役所・出張所",
    "category:en": "city office and branch offices",
    "locations": [
      {
        "name": "千代田区役所",
        "name:en": "Chiyoda City Office",
        "lat": 35.69404386157018,
        "lng": 139.7534462933312,
        "copyright": "© Nawashiro",
        "licence": "MIT License",
        "licenceUri": "https://opensource.org/license/mit"
      },
      {
        "name": "麹町出張所",
        "name:en": "Kojimachi Branch Office",
        "lat": 35.68565805435862,
        "lng": 139.74014178248223,
        "copyright": "© Nawashiro",
        "licence": "MIT License",
        "licenceUri": "https://opensource.org/license/mit"
      },
      {
        "name": "富士見出張所",
        "name:en": "Fujimi Branch Office",
        "lat": 35.6990819997197,
        "lng": 139.74633673360748,
        "copyright": "© Nawashiro",
        "licence": "MIT License",
        "licenceUri": "https://opensource.org/license/mit"
      },
      {
        "name": "神保町出張所",
        "name:en": "Jimbocho Branch Office",
        "lat": 35.697681965780816,
        "lng": 139.75527999441758,
        "copyright": "© Nawashiro",
        "licence": "MIT License",
        "licenceUri": "https://opensource.org/license/mit"
      },
      {
        "name": "神田公園出張所",
        "name:en": "Kanda Park Branch Office",
        "lat": 35.69276087513066,
        "lng": 139.76818659077617,
        "copyright": "© Nawashiro",
        "licence": "MIT License",
        "licenceUri": "https://opensource.org/license/mit"
      },
      {
        "name": "万世橋出張所",
        "name:en": "Manseibashi Branch Office",
        "lat": 35.69755974369917,
        "lng": 139.77067763542368,
        "copyright": "© Nawashiro",
        "licence": "MIT License",
        "licenceUri": "https://opensource.org/license/mit"
      },
      {
        "name": "和泉橋出張所",
        "name:en": "Izumibashi Branch Office",
        "lat": 35.69739926485034,
        "lng": 139.77496301325917,
        "copyright": "© Nawashiro",
        "licence": "MIT License",
        "licenceUri": "https://opensource.org/license/mit"
      }
    ]
  },
  {
    "category": "会館",
    "category:en": "meeting halls",
    "locations": [
      {
        "name": "麹町区民館",
        "name:en": "Kojimachi Community Center",
        "lat": 35.68565805435862,
        "lng": 139.74014178248223,
        "copyright": "© Nawashiro",
        "licence": "MIT License",
        "licenceUri": "https://opensource.org/license/mit"
      },
      {
        "name": "麹町集会室",
        "name:en": "Kojimachi Meeting Room",
        "lat": 35.68469708731708,
        "lng": 139.74097108357066,
        "copyright": "© Nawashiro",
        "licence": "MIT License",
        "licenceUri": "https://opensource.org/license/mit"
      },
      {
        "name": "一番町集会室",
        "name:en": "Ichibancho Meeting Room",
        "lat": 35.68633280987713,
        "lng": 139.73919402787647,
        "copyright": "© Nawashiro",
        "licence": "MIT License",
        "licenceUri": "https://opensource.org/license/mit"
      },
      {
        "name": "富士見区民館",
        "name:en": "Fujimi Community Center",
        "lat": 35.6990819997197,
        "lng": 139.74633673360748,
        "copyright": "© Nawashiro",
        "licence": "MIT License",
        "licenceUri": "https://opensource.org/license/mit"
      },
      {
        "name": "九段上集会室",
        "name:en": "Kudanue Meeting Room",
        "lat": 35.692665501832465,
        "lng": 139.74388088350682,
        "copyright": "© Nawashiro",
        "licence": "MIT License",
        "licenceUri": "https://opensource.org/license/mit"
      },
      {
        "name": "神保町区民館",
        "name:en": "Jimbocho Community Center",
        "lat": 35.697681965780816,
        "lng": 139.75527999441758,
        "copyright": "© Nawashiro",
        "licence": "MIT License",
        "licenceUri": "https://opensource.org/license/mit"
      },
      {
        "name": "神田公園区民館",
        "name:en": "Kanda Park Community Center",
        "lat": 35.69276087513066,
        "lng": 139.76818659077617,
        "copyright": "© Nawashiro",
        "licence": "MIT License",
        "licenceUri": "https://opensource.org/license/mit"
      },
      {
        "name": "神田公園集会室",
        "name:en": "Kanda Park Meeting Room",
        "lat": 35.69276087513066,
        "lng": 139.76818659077617,
        "copyright": "© Nawashiro",
        "licence": "MIT License",
        "licenceUri": "https://opensource.org/license/mit"
      },
      {
        "name": "内神田集会室",
        "name:en": "Uchi-Kanda Meeting Room",
        "lat": 35.68971170731089,
        "lng": 139.76491113423228,
        "copyright": "© Nawashiro",
        "licence": "MIT License",
        "licenceUri": "https://opensource.org/license/mit"
      },
      {
        "name": "万世橋区民館",
        "name:en": "Manseibashi Community Center",
        "lat": 35.69755974369917,
        "lng": 139.77067763542368,
        "copyright": "© Nawashiro",
        "licence": "MIT License",
        "licenceUri": "https://opensource.org/license/mit"
      },
      {
        "name": "和泉橋区民館",
        "name:en": "Izumibashi Community Center",
        "lat": 35.69739926485034,
        "lng": 139.77496301325917,
        "copyright": "© Nawashiro",
        "licence": "MIT License",
        "licenceUri": "https://opensource.org/license/mit"
      },
      {
        "name": "ふれあい会館",
        "name:en": "Fureai Hall",
        "lat": 35.69651992869352,
        "lng": 139.7731357866509,
        "copyright": "© Nawashiro",
        "licence": "MIT License",
        "licenceUri": "https://opensource.org/license/mit"
      },
      {
        "name": "千代田万世会館（千代田区立葬祭施設）",
        "name:en": "Chiyoda Mansei Hall (Chiyoda City Funeral Facility)",
        "lat": 35.698034023018835,
        "lng": 139.77005316222136,
        "copyright": "© Nawashiro",
        "licence": "MIT License",
        "licenceUri": "https://opensource.org/license/mit"
      }
    ]
  },
  {
    "category": "葬祭施設",
    "category:en": "funeral facilities",
    "locations": [
      {
        "name": "千代田万世会館（千代田区立葬祭施設）",
        "name:en": "Chiyoda Mansei Hall (Chiyoda City Funeral Facility)",
        "lat": 35.698034023018835,
        "lng": 139.77005316222136,
        "copyright": "© Nawashiro",
        "licence": "MIT License",
        "licenceUri": "https://opensource.org/license/mit"
      }
    ]
  },
  {
    "category": "区立の学校",
    "category:en": "public schools",
    "locations": [
      {
        "name": "麹町小学校",
        "name:en": "Kojimachi Elementary School",
        "lat": 35.68553446978749,
        "lng": 139.73932572780038,
        "copyright": "© Nawashiro",
        "licence": "MIT License",
        "licenceUri": "https://opensource.org/license/mit"
      },
      {
        "name": "九段小学校",
        "name:en": "Kudan Elementary School",
        "lat": 35.69052250538365,
        "lng": 139.7407855959865,
        "copyright": "© Nawashiro",
        "licence": "MIT License",
        "licenceUri": "https://opensource.org/license/mit"
      },
      {
        "name": "番町小学校",
        "name:en": "Bancho Elementary School",
        "lat": 35.68813510667791,
        "lng": 139.73415560986444,
        "copyright": "© Nawashiro",
        "licence": "MIT License",
        "licenceUri": "https://opensource.org/license/mit"
      },
      {
        "name": "富士見小学校",
        "name:en": "Fujimi Elementary School",
        "lat": 35.68813510667791,
        "lng": 139.73415359820768,
        "copyright": "© Nawashiro",
        "licence": "MIT License",
        "licenceUri": "https://opensource.org/license/mit"
      },
      {
        "name": "お茶の水小学校",
        "name:en": "Ochanomizu Elementary School",
        "lat": 35.69736908878986,
        "lng": 139.76031759548317,
        "copyright": "© Nawashiro",
        "licence": "MIT License",
        "licenceUri": "https://opensource.org/license/mit"
      },
      {
        "name": "千代田小学校",
        "name:en": "Chiyoda Elementary School",
        "lat": 35.69310760937167,
        "lng": 139.7682407494804,
        "copyright": "© Nawashiro",
        "licence": "MIT License",
        "licenceUri": "https://opensource.org/license/mit"
      },
      {
        "name": "昌平小学校",
        "name:en": "Shohei Elementary School",
        "lat": 35.70120454868786,
        "lng": 139.77015564403723,
        "copyright": "© Nawashiro",
        "licence": "MIT License",
        "licenceUri": "https://opensource.org/license/mit"
      },
      {
        "name": "和泉小学校",
        "name:en": "Izumi Elementary School",
        "lat": 35.699090545638796,
        "lng": 139.77838558721913,
        "copyright": "© Nawashiro",
        "licence": "MIT License",
        "licenceUri": "https://opensource.org/license/mit"
      },
      {
        "name": "麹町中学校",
        "name:en": "Kojimachi Junior High School",
        "lat": 35.68050712778707,
        "lng": 139.73856237394972,
        "copyright": "© Nawashiro",
        "licence": "MIT License",
        "licenceUri": "https://opensource.org/license/mit"
      },
      {
        "name": "神田一橋中学校",
        "name:en": "Kanda Hitotsubashi Junior High School",
        "lat": 35.694245936936184,
        "lng": 139.75689992195757,
        "copyright": "© Nawashiro",
        "licence": "MIT License",
        "licenceUri": "https://opensource.org/license/mit"
      },
      {
        "name": "九段中等教育学校",
        "name:en": "Kudan Secondary School",
        "lat": 35.69618608960012,
        "lng": 139.74746940452349,
        "copyright": "© Nawashiro",
        "licence": "MIT License",
        "licenceUri": "https://opensource.org/license/mit"
      }
    ]
  },
  {
    "category": "高齢者福祉施設",
    "category:en": "elderly welfare facilities",
    "locations": [
      {
        "name": "THE BANCHO",
        "name:en": "THE BANCHO",
        "lat": 35.68538802053677,
        "lng": 139.73491295762162,
        "copyright": "© Nawashiro",
        "licence": "MIT License",
        "licenceUri": "https://opensource.org/license/mit"
      },
      {
        "name": "高齢者総合サポートセンター「かがやきプラザ」",
        "name:en": "Senior Comprehensive Support Center 'Kagayaki Plaza'",
        "lat": 35.693869873119944,
        "lng": 139.75209686779883,
        "copyright": "© Nawashiro",
        "licence": "MIT License",
        "licenceUri": "https://opensource.org/license/mit"
      },
      {
        "name": "いきいきプラザ一番町",
        "name:en": "Ikiiki Plaza Ichibancho",
        "lat": 35.687128074938634,
        "lng": 139.73954025989556,
        "copyright": "© Nawashiro",
        "licence": "MIT License",
        "licenceUri": "https://opensource.org/license/mit"
      },
      {
        "name": "岩本町ほほえみプラザ",
        "name:en": "Iwamotocho Hohoemi Plaza",
        "lat": 35.694340550454434,
        "lng": 139.77777148698945,
        "copyright": "© Nawashiro",
        "licence": "MIT License",
        "licenceUri": "https://opensource.org/license/mit"
      },
      {
        "name": "かんだ連雀",
        "name:en": "Kanda Renjaku",
        "lat": 35.69664307247553,
        "lng": 139.76849221975107,
        "copyright": "© Nawashiro",
        "licence": "MIT License",
        "licenceUri": "https://opensource.org/license/mit"
      },
      {
        "name": "ジロール神田佐久間町",
        "name:en": "Giroll Kanda Sakumacho",
        "lat": 35.69720960942985,
        "lng": 139.77827598778325,
        "copyright": "© Nawashiro",
        "licence": "MIT License",
        "licenceUri": "https://opensource.org/license/mit"
      },
      {
        "name": "ジロール麹町",
        "name:en": "Giroll Kojimachi",
        "lat": 35.68559384360821,
        "lng": 139.74124116896954,
        "copyright": "© Nawashiro",
        "licence": "MIT License",
        "licenceUri": "https://opensource.org/license/mit"
      },
      {
        "name": "淡路にこにこフォーユープラザ",
        "name:en": "Awaji Nikoniko For You Plaza",
        "lat": 35.69694478724148,
        "lng": 139.76686107841755,
        "copyright": "© Nawashiro",
        "licence": "MIT License",
        "licenceUri": "https://opensource.org/license/mit"
      }
    ]
  },
  {
    "category": "障害者福祉施設",
    "category:en": "disability welfare facilities",
    "locations": [
      {
        "name": "障害者就労支援センター",
        "name:en": "Disability Employment Support Center",
        "lat": 35.69404386157018,
        "lng": 139.7534462933312,
        "copyright": "© Nawashiro",
        "licence": "MIT License",
        "licenceUri": "https://opensource.org/license/mit"
      },
      {
        "name": "障害者福祉センター えみふる",
        "name:en": "Disability Welfare Center emifuru",
        "lat": 35.70039175557569,
        "lng": 139.7608335762198,
        "copyright": "© Nawashiro",
        "licence": "MIT License",
        "licenceUri": "https://opensource.org/license/mit"
      },
      {
        "name": "さくらベーカリー",
        "name:en": "Sakura Bakery",
        "lat": 35.69404386157018,
        "lng": 139.7534462933312,
        "copyright": "© Nawashiro",
        "licence": "MIT License",
        "licenceUri": "https://opensource.org/license/mit"
      },
      {
        "name": "障害者就労支援施設ジョブ・サポート・プラザちよだ",
        "name:en": "Disability Employment Support Facility Job Support Plaza Chiyoda",
        "lat": 35.69397194399621,
        "lng": 139.75362665985668,
        "copyright": "© Nawashiro",
        "licence": "MIT License",
        "licenceUri": "https://opensource.org/license/mit"
      }
    ]
  },
  {
    "category": "図書館",
    "category:en": "libraries",
    "locations": [
      {
        "name": "千代田図書館",
        "name:en": "Chiyoda Library",
        "lat": 35.69404386157018,
        "lng": 139.7534462933312,
        "copyright": "© Nawashiro",
        "licence": "MIT License",
        "licenceUri": "https://opensource.org/license/mit"
      },
      {
        "name": "昌平まちかど図書館",
        "name:en": "Shohei Community Library",
        "lat": 35.70136306114989,
        "lng": 139.7699593765381,
        "copyright": "© Nawashiro",
        "licence": "MIT License",
        "licenceUri": "https://opensource.org/license/mit"
      },
      {
        "name": "神田まちかど図書館",
        "name:en": "Kanda Community Library",
        "lat": 35.693202913950564,
        "lng": 139.76843709124535,
        "copyright": "© Nawashiro",
        "licence": "MIT License",
        "licenceUri": "https://opensource.org/license/mit"
      },
      {
        "name": "ちよだパークサイドプラザ区民図書室",
        "name:en": "Chiyoda Parkside Plaza Community Library",
        "lat": 35.699273660101575,
        "lng": 139.77855243773624,
        "copyright": "© Nawashiro",
        "licence": "MIT License",
        "licenceUri": "https://opensource.org/license/mit"
      }
    ]
  },
  {
    "category": "リサイクル",
    "category:en": "recycling",
    "locations": [
      {
        "name": "千代田清掃事務所",
        "name:en": "Chiyoda Cleaning Office",
        "lat": 35.698121743235625,
        "lng": 139.76988495353677,
        "copyright": "© Nawashiro",
        "licence": "MIT License",
        "licenceUri": "https://opensource.org/license/mit"
      },
      {
        "name": "リサイクルセンター鎌倉橋",
        "name:en": "Recycling Center Kamakurabashi",
        "lat": 35.68932321445909,
        "lng": 139.76771308051536,
        "copyright": "© Nawashiro",
        "licence": "MIT License",
        "licenceUri": "https://opensource.org/license/mit"
      }
    ]
  }
]